[{"active": true, "name": "name1", "qualification": "q1", "speciality": "s1", "phone": "8800000009", "department": "Not Applicable", "organization": "o1", "location": "l1", "address": "a1", "providerID": "0ff1ca64-fc94-4b2d-be1d-859da4beb9c5"}, {"active": true, "name": "name2", "qualification": "q1,q2", "speciality": "s1", "phone": "1234566789", "department": "Not Applicable", "organization": "o1", "location": "l3", "address": "sfdsds", "providerID": "b9461296-81ab-43d8-9065-f8f67d311acb"}, {"active": true, "name": "name4", "qualification": "q3", "speciality": "s3", "phone": "1234567890", "department": "Not Applicable", "organization": "o3", "location": "l89", "address": "4544/45 SECTOR-3 pocket 2 faridabad", "providerID": "17ce5524-3c91-4e2c-ab41-bf10b81200bb"}, {"active": true, "name": "name6", "qualification": "qual1", "speciality": "spec1", "phone": "1234567890", "department": "Not Applicable", "organization": "org1", "location": "loc1", "address": "address line1", "providerID": "769aa80f-8732-4742-a67a-25df065a7919"}]